{
  "states": [
    "Johor",
    "Kedah",
    "Kelantan",
    "Melaka",
    "Negeri Sembilan",
    "Pahang",
    "Perak",
    "Perlis",
    "Pulau Pinang",
    "Sabah",
    "Sarawak",
    "Selangor",
    "Terengganu",
    "Putrajaya",
    "Kuala Lumpur",
    "Labuan"
  ],
  "areas": [
    {
      "code": "jhr01",
      "state": "Johor",
      "name": "Pulau Aur",
      "lat": "2.444152",
      "lng": "104.524746"
    },
    {
      "code": "jhr01",
      "state": "Johor",
      "name": "Pemanggil",
      "lat": "2.580882",
      "lng": "104.326827"
    },
    {
      "code": "jhr02",
      "state": "Johor",
      "name": "Kota Tinggi",
      "lat": "1.729375",
      "lng": "103.899227"
    },
    {
      "code": "jhr02",
      "state": "Johor",
      "name": "Mersing",
      "lat": "2.430917",
      "lng": "103.836115"
    },
    {
      "code": "jhr02",
      "state": "Johor",
      "name": "Johor Bahru",
      "lat": "1.492659",
      "lng": "103.741359"
    },
    {
      "code": "jhr03",
      "state": "Johor",
      "name": "Kluang",
      "lat": "2.030068",
      "lng": "103.318464"
    },
    {
      "code": "jhr03",
      "state": "Johor",
      "name": "Pontian",
      "lat": "1.485561",
      "lng": "103.387859"
    },
    {
      "code": "jhr04",
      "state": "Johor",
      "name": "Batu Pahat",
      "lat": "1.849442",
      "lng": "102.928834"
    },
    {
      "code": "jhr04",
      "state": "Johor",
      "name": "Muar",
      "lat": "2.048817",
      "lng": "102.571553"
    },
    {
      "code": "jhr04",
      "state": "Johor",
      "name": "Segamat",
      "lat": "2.503460",
      "lng": "102.820754"
    },
    {
      "code": "jhr04",
      "state": "Johor",
      "name": "Gemas",
      "lat": "2.581593",
      "lng": "102.612488"
    },
    {
      "code": "kdh01",
      "state": "Kedah",
      "name": "Kota Setar",
      "lat": "6.096953",
      "lng": "100.353977"
    },
    {
      "code": "kdh01",
      "state": "Kedah",
      "name": "Kubang Pasu",
      "lat": "6.267335",
      "lng": "100.425831"
    },
    {
      "code": "kdh01",
      "state": "Kedah",
      "name": "Pokok Sena",
      "lat": "6.167317",
      "lng": "100.519358"
    },
    {
      "code": "kdh02",
      "state": "Kedah",
      "name": "Pendang",
      "lat": "5.993039",
      "lng": "100.477339"
    },
    {
      "code": "kdh02",
      "state": "Kedah",
      "name": "Kuala Muda",
      "lat": "5.644561",
      "lng": "100.489023"
    },
    {
      "code": "kdh02",
      "state": "Kedah",
      "name": "Yan",
      "lat": "5.794950",
      "lng": "100.372658"
    },
    {
      "code": "kdh03",
      "state": "Kedah",
      "name": "Padang Terap",
      "lat": "6.256764",
      "lng": "100.611034"
    },
    {
      "code": "kdh03",
      "state": "Kedah",
      "name": "Sik",
      "lat": "5.818345",
      "lng": "100.743021"
    },
    {
      "code": "kdh04",
      "state": "Kedah",
      "name": "Baling",
      "lat": "5.675547",
      "lng": "100.916814"
    },
    {
      "code": "kdh05",
      "state": "Kedah",
      "name": "Kulim",
      "lat": "5.371742",
      "lng": "100.555337"
    },
    {
      "code": "kdh05",
      "state": "Kedah",
      "name": "Bandar Bahru",
      "lat": "5.131163",
      "lng": "100.495534"
    },
    {
      "code": "kdh06",
      "state": "Kedah",
      "name": "Langkawi",
      "lat": "6.350000",
      "lng": "99.800000"
    },
    {
      "code": "kdh07",
      "state": "Kedah",
      "name": "Gunung Jerai",
      "lat": "5.783333",
      "lng": "100.433333"
    },
    {
      "code": "ktn01",
      "state": "Kelantan",
      "name": "Kota Bahru",
      "lat": "6.116786",
      "lng": "102.277684"
    },
    {
      "code": "ktn01",
      "state": "Kelantan",
      "name": "Bachok",
      "lat": "6.069586",
      "lng": "102.397185"
    },
    {
      "code": "ktn01",
      "state": "Kelantan",
      "name": "Pasir Puteh",
      "lat": "5.836163",
      "lng": "102.407741"
    },
    {
      "code": "ktn01",
      "state": "Kelantan",
      "name": "Tumpat",
      "lat": "6.199069",
      "lng": "102.169372"
    },
    {
      "code": "ktn01",
      "state": "Kelantan",
      "name": "Pasir Mas",
      "lat": "6.042412",
      "lng": "102.142782"
    },
    {
      "code": "ktn01",
      "state": "Kelantan",
      "name": "Tanah Merah",
      "lat": "5.808887",
      "lng": "102.147077"
    },
    {
      "code": "ktn01",
      "state": "Kelantan",
      "name": "Machang",
      "lat": "5.767933",
      "lng": "102.215387"
    },
    {
      "code": "ktn01",
      "state": "Kelantan",
      "name": "Kuala Krai",
      "lat": "5.530813",
      "lng": "102.201851"
    },
    {
      "code": "ktn01",
      "state": "Kelantan",
      "name": "Mukim Chiku",
      "lat": "4.916993",
      "lng": "102.177656"
    },
    {
      "code": "ktn03",
      "state": "Kelantan",
      "name": "Jeli",
      "lat": "5.700699",
      "lng": "101.843151"
    },
    {
      "code": "ktn03",
      "state": "Kelantan",
      "name": "Gua Musang",
      "lat": "4.884279",
      "lng": "101.968178"
    },
    {
      "code": "ktn03",
      "state": "Kelantan",
      "name": "Mukim Galas",
      "lat": "4.828924",
      "lng": "101.934807"
    },
    {
      "code": "ktn03",
      "state": "Kelantan",
      "name": "Bertam",
      "lat": "5.151936",
      "lng": "102.043792"
    },
    {
      "code": "mlk01",
      "state": "Melaka",
      "name": "Bandar Melaka",
      "lat": "2.197138",
      "lng": "102.249070"
    },
    {
      "code": "mlk01",
      "state": "Melaka",
      "name": "Alor Gajah",
      "lat": "2.382211",
      "lng": "102.211561"
    },
    {
      "code": "mlk01",
      "state": "Melaka",
      "name": "Jasin",
      "lat": "2.311337",
      "lng": "102.430923"
    },
    {
      "code": "mlk01",
      "state": "Melaka",
      "name": "Masjid Tanah",
      "lat": "2.352279",
      "lng": "102.108926"
    },
    {
      "code": "mlk01",
      "state": "Melaka",
      "name": "Merlimau",
      "lat": "2.145214",
      "lng": "102.422383"
    },
    {
      "code": "mlk01",
      "state": "Melaka",
      "name": "Nyalas",
      "lat": "2.436091",
      "lng": "102.469871"
    },
    {
      "code": "ngs01",
      "state": "Negeri Sembilan",
      "name": "Jempol",
      "lat": "2.896577",
      "lng": "102.405454"
    },
    {
      "code": "ngs01",
      "state": "Negeri Sembilan",
      "name": "Tampin",
      "lat": "2.472971",
      "lng": "102.231194"
    },
    {
      "code": "ngs02",
      "state": "Negeri Sembilan",
      "name": "Port Dickson",
      "lat": "2.522540",
      "lng": "101.796293"
    },
    {
      "code": "ngs02",
      "state": "Negeri Sembilan",
      "name": "Seremban",
      "lat": "2.725889",
      "lng": "101.937824"
    },
    {
      "code": "ngs02",
      "state": "Negeri Sembilan",
      "name": "Kuala Pilah",
      "lat": "2.740474",
      "lng": "102.248872"
    },
    {
      "code": "ngs02",
      "state": "Negeri Sembilan",
      "name": "Jelebu",
      "lat": "2.941072",
      "lng": "102.071910"
    },
    {
      "code": "ngs02",
      "state": "Negeri Sembilan",
      "name": "Rembau",
      "lat": "2.590525",
      "lng": "102.092986"
    },
    {
      "code": "phg01",
      "state": "Pahang",
      "name": "Pulau Tioman",
      "lat": "2.790249",
      "lng": "104.169846"
    },
    {
      "code": "phg02",
      "state": "Pahang",
      "name": "Kuantan",
      "lat": "3.816667",
      "lng": "103.333333"
    },
    {
      "code": "phg02",
      "state": "Pahang",
      "name": "Pekan",
      "lat": "3.492095",
      "lng": "103.389545"
    },
    {
      "code": "phg02",
      "state": "Pahang",
      "name": "Rompin",
      "lat": "2.688626",
      "lng": "102.522802"
    },
    {
      "code": "phg02",
      "state": "Pahang",
      "name": "Muadzam Shah",
      "lat": "3.056192",
      "lng": "103.085225"
    },
    {
      "code": "phg03",
      "state": "Pahang",
      "name": "Maran",
      "lat": "3.583380",
      "lng": "102.779065"
    },
    {
      "code": "phg03",
      "state": "Pahang",
      "name": "Chenor",
      "lat": "3.493743",
      "lng": "102.581850"
    },
    {
      "code": "phg03",
      "state": "Pahang",
      "name": "Temerloh",
      "lat": "3.448649",
      "lng": "102.416348"
    },
    {
      "code": "phg03",
      "state": "Pahang",
      "name": "Bera",
      "lat": "3.270526",
      "lng": "102.453864"
    },
    {
      "code": "phg03",
      "state": "Pahang",
      "name": "Jerantut",
      "lat": "3.937395",
      "lng": "102.362038"
    },
    {
      "code": "phg04",
      "state": "Pahang",
      "name": "Bentong",
      "lat": "3.522168",
      "lng": "101.910353"
    },
    {
      "code": "phg04",
      "state": "Pahang",
      "name": "Raub",
      "lat": "3.793532",
      "lng": "101.857465"
    },
    {
      "code": "phg04",
      "state": "Pahang",
      "name": "Kuala Lipis",
      "lat": "4.184330",
      "lng": "102.054232"
    },
    {
      "code": "phg05",
      "state": "Pahang",
      "name": "Genting Sempah",
      "lat": "3.350000",
      "lng": "101.783333"
    },
    {
      "code": "phg05",
      "state": "Pahang",
      "name": "Janda Baik",
      "lat": "3.350000",
      "lng": "101.883333"
    },
    {
      "code": "phg05",
      "state": "Pahang",
      "name": "Bukit Tinggi",
      "lat": "3.400997",
      "lng": "101.846822"
    },
    {
      "code": "phg06",
      "state": "Pahang",
      "name": "Bukit Fraser",
      "lat": "3.711868",
      "lng": "101.736556"
    },
    {
      "code": "phg06",
      "state": "Pahang",
      "name": "Genting Highlands",
      "lat": "3.423978",
      "lng": "101.793201"
    },
    {
      "code": "phg06",
      "state": "Pahang",
      "name": "Cameron Highlands",
      "lat": "4.472120",
      "lng": "101.380144"
    },
    {
      "code": "phg03",
      "state": "Pahang",
      "name": "Jengka",
      "lat": "3.723779",
      "lng": "102.545654"
    },
    {
      "code": "prk01",
      "state": "Perak",
      "name": "Tapah",
      "lat": "4.197730",
      "lng": "101.261529"
    },
    {
      "code": "prk01",
      "state": "Perak",
      "name": "Slim River",
      "lat": "3.830025",
      "lng": "101.404645"
    },
    {
      "code": "prk01",
      "state": "Perak",
      "name": "Tanjung Malim",
      "lat": "3.705842",
      "lng": "101.504916"
    },
    {
      "code": "prk02",
      "state": "Perak",
      "name": "Ipoh",
      "lat": "4.597479",
      "lng": "101.090106"
    },
    {
      "code": "prk02",
      "state": "Perak",
      "name": "Batu Gajah",
      "lat": "4.472081",
      "lng": "101.041240"
    },
    {
      "code": "prk02",
      "state": "Perak",
      "name": "Kampar",
      "lat": "4.308504",
      "lng": "101.153653"
    },
    {
      "code": "prk02",
      "state": "Perak",
      "name": "Sungai Siput",
      "lat": "4.819012",
      "lng": "101.073718"
    },
    {
      "code": "prk02",
      "state": "Perak",
      "name": "Kuala Kangsar",
      "lat": "4.773595",
      "lng": "100.942045"
    },
    {
      "code": "prk03",
      "state": "Perak",
      "name": "Pengkalan Hulu",
      "lat": "5.706440",
      "lng": "100.999837"
    },
    {
      "code": "prk03",
      "state": "Perak",
      "name": "Grik",
      "lat": "5.428454",
      "lng": "101.129703"
    },
    {
      "code": "prk03",
      "state": "Perak",
      "name": "Lenggong",
      "lat": "5.108440",
      "lng": "100.968034"
    },
    {
      "code": "prk04",
      "state": "Perak",
      "name": "Temengor",
      "lat": "5.333186",
      "lng": "101.367712"
    },
    {
      "code": "prk04",
      "state": "Perak",
      "name": "Belum",
      "lat": "5.740126",
      "lng": "101.479350"
    },
    {
      "code": "prk05",
      "state": "Perak",
      "name": "Teluk Intan",
      "lat": "4.022424",
      "lng": "101.020625"
    },
    {
      "code": "prk05",
      "state": "Perak",
      "name": "Bagan Datuk",
      "lat": "3.991910",
      "lng": "100.786148"
    },
    {
      "code": "prk05",
      "state": "Perak",
      "name": "Kampung Gajah",
      "lat": "4.184167",
      "lng": "100.938719"
    },
    {
      "code": "prk05",
      "state": "Perak",
      "name": "Seri Iskandar",
      "lat": "4.357145",
      "lng": "100.963392"
    },
    {
      "code": "prk05",
      "state": "Perak",
      "name": "Beruas",
      "lat": "4.500804",
      "lng": "100.781508"
    },
    {
      "code": "prk05",
      "state": "Perak",
      "name": "Parit",
      "lat": "4.476689",
      "lng": "100.909749"
    },
    {
      "code": "prk05",
      "state": "Perak",
      "name": "Lumut",
      "lat": "4.236302",
      "lng": "100.632220"
    },
    {
      "code": "prk05",
      "state": "Perak",
      "name": "Sitiawan",
      "lat": "4.216825",
      "lng": "100.697824"
    },
    {
      "code": "prk05",
      "state": "Perak",
      "name": "Pulau Pangkor",
      "lat": "4.227491",
      "lng": "100.557741"
    },
    {
      "code": "prk06",
      "state": "Perak",
      "name": "Selama",
      "lat": "5.218462",
      "lng": "100.693460"
    },
    {
      "code": "prk06",
      "state": "Perak",
      "name": "Taiping",
      "lat": "4.851932",
      "lng": "100.741634"
    },
    {
      "code": "prk06",
      "state": "Perak",
      "name": "Bagan Serai",
      "lat": "5.008062",
      "lng": "100.539430"
    },
    {
      "code": "prk06",
      "state": "Perak",
      "name": "Parit Buntar",
      "lat": "5.118682",
      "lng": "100.488016"
    },
    {
      "code": "prk07",
      "state": "Perak",
      "name": "Bukit Larut",
      "lat": "4.862300",
      "lng": "100.793000"
    },
    {
      "code": "pls01",
      "state": "Perlis",
      "name": "Kangar",
      "lat": "6.440633",
      "lng": "100.198371"
    },
    {
      "code": "pls01",
      "state": "Perlis",
      "name": "Padang Besar",
      "lat": "6.662622",
      "lng": "100.321665"
    },
    {
      "code": "pls01",
      "state": "Perlis",
      "name": "Arau",
      "lat": "6.429708",
      "lng": "100.269847"
    },
    {
      "code": "png01",
      "state": "Pulau Pinang",
      "name": "Pulau Pinang",
      "lat": "5.414168",
      "lng": "100.328759"
    },
    {
      "code": "sbh01",
      "state": "Sabah",
      "name": "Sandakan Timur",
      "lat": "5.839444",
      "lng": "118.117173"
    },
    {
      "code": "sbh01",
      "state": "Sabah",
      "name": "Bukit Garam",
      "lat": "5.500122",
      "lng": "117.837606"
    },
    {
      "code": "sbh01",
      "state": "Sabah",
      "name": "Semawang",
      "lat": "5.916667",
      "lng": "117.766666"
    },
    {
      "code": "sbh01",
      "state": "Sabah",
      "name": "Temanggong",
      "lat": "4.910632",
      "lng": "114.934834"
    },
    {
      "code": "sbh01",
      "state": "Sabah",
      "name": "Tambisan",
      "lat": "5.450148",
      "lng": "119.109986"
    },
    {
      "code": "sbh02",
      "state": "Sabah",
      "name": "Pinangah",
      "lat": "4.990731",
      "lng": "116.832411"
    },
    {
      "code": "sbh02",
      "state": "Sabah",
      "name": "Terusan",
      "lat": "6.426081",
      "lng": "117.687599"
    },
    {
      "code": "sbh02",
      "state": "Sabah",
      "name": "Beluran",
      "lat": "5.702070",
      "lng": "117.401544"
    },
    {
      "code": "sbh02",
      "state": "Sabah",
      "name": "Kuamut",
      "lat": "5.015856",
      "lng": "117.353107"
    },
    {
      "code": "sbh02",
      "state": "Sabah",
      "name": "Telupid",
      "lat": "5.627233",
      "lng": "117.127534"
    },
    {
      "code": "sbh03",
      "state": "Sabah",
      "name": "Lahad Datu",
      "lat": "5.024206",
      "lng": "118.330746"
    },
    {
      "code": "sbh03",
      "state": "Sabah",
      "name": "Kunak",
      "lat": "4.686116",
      "lng": "118.251146"
    },
    {
      "code": "sbh03",
      "state": "Sabah",
      "name": "Silabukan",
      "lat": "5.136667",
      "lng": "118.614167"
    },
    {
      "code": "sbh03",
      "state": "Sabah",
      "name": "Tungku",
      "lat": "4.931209",
      "lng": "114.911622"
    },
    {
      "code": "sbh03",
      "state": "Sabah",
      "name": "Sahabat",
      "lat": "5.078867",
      "lng": "119.070775"
    },
    {
      "code": "sbh03",
      "state": "Sabah",
      "name": "Semporna",
      "lat": "4.479391",
      "lng": "118.611545"
    },
    {
      "code": "sbh04",
      "state": "Sabah",
      "name": "Bandar Tawau",
      "lat": "4.244651",
      "lng": "117.891186"
    },
    {
      "code": "sbh04",
      "state": "Sabah",
      "name": "Balong",
      "lat": "4.398421",
      "lng": "118.058604"
    },
    {
      "code": "sbh04",
      "state": "Sabah",
      "name": "Merotai",
      "lat": "4.356929",
      "lng": "117.827169"
    },
    {
      "code": "sbh04",
      "state": "Sabah",
      "name": "Kalabakan",
      "lat": "4.411679",
      "lng": "117.492699"
    },
    {
      "code": "sbh05",
      "state": "Sabah",
      "name": "Kudat",
      "lat": "6.886840",
      "lng": "116.825311"
    },
    {
      "code": "sbh05",
      "state": "Sabah",
      "name": "Kota Marudu",
      "lat": "6.465705",
      "lng": "116.726409"
    },
    {
      "code": "sbh05",
      "state": "Sabah",
      "name": "Pitas",
      "lat": "6.722237",
      "lng": "117.055273"
    },
    {
      "code": "sbh05",
      "state": "Sabah",
      "name": "Pulau Banggi",
      "lat": "7.267260",
      "lng": "117.150005"
    },
    {
      "code": "sbh06",
      "state": "Sabah",
      "name": "Gunung Kinabalu",
      "lat": "6.074544",
      "lng": "116.562720"
    },
    {
      "code": "sbh07",
      "state": "Sabah",
      "name": "Papar",
      "lat": "5.734628",
      "lng": "115.931851"
    },
    {
      "code": "sbh07",
      "state": "Sabah",
      "name": "Ranau",
      "lat": "5.953561",
      "lng": "116.663950"
    },
    {
      "code": "sbh07",
      "state": "Sabah",
      "name": "Kota Belud",
      "lat": "6.353248",
      "lng": "116.427877"
    },
    {
      "code": "sbh07",
      "state": "Sabah",
      "name": "Tuaran",
      "lat": "6.176269",
      "lng": "116.232790"
    },
    {
      "code": "sbh07",
      "state": "Sabah",
      "name": "Penampang",
      "lat": "5.914199",
      "lng": "116.107663"
    },
    {
      "code": "sbh07",
      "state": "Sabah",
      "name": "Kota Kinabalu",
      "lat": "5.980408",
      "lng": "116.073457"
    },
    {
      "code": "sbh08",
      "state": "Sabah",
      "name": "Pensiangan",
      "lat": "4.550000",
      "lng": "116.316667"
    },
    {
      "code": "sbh08",
      "state": "Sabah",
      "name": "Keningau",
      "lat": "5.337404",
      "lng": "116.156680"
    },
    {
      "code": "sbh08",
      "state": "Sabah",
      "name": "Tambunan",
      "lat": "5.721291",
      "lng": "116.410779"
    },
    {
      "code": "sbh08",
      "state": "Sabah",
      "name": "Nabawan",
      "lat": "5.122208",
      "lng": "116.432583"
    },
    {
      "code": "sbh09",
      "state": "Sabah",
      "name": "Sipitang",
      "lat": "5.079190",
      "lng": "115.550825"
    },
    {
      "code": "sbh09",
      "state": "Sabah",
      "name": "Membakut",
      "lat": "5.527729",
      "lng": "115.695961"
    },
    {
      "code": "sbh09",
      "state": "Sabah",
      "name": "Beaufort",
      "lat": "5.345118",
      "lng": "115.745112"
    },
    {
      "code": "sbh09",
      "state": "Sabah",
      "name": "Kuala Penyu",
      "lat": "5.571717",
      "lng": "115.597146"
    },
    {
      "code": "sbh09",
      "state": "Sabah",
      "name": "Weston",
      "lat": "5.216881",
      "lng": "115.598801"
    },
    {
      "code": "sbh09",
      "state": "Sabah",
      "name": "Tenom",
      "lat": "5.130495",
      "lng": "115.945455"
    },
    {
      "code": "sbh09",
      "state": "Sabah",
      "name": "Long Pa Sia",
      "lat": "5.978840",
      "lng": "116.075320"
    },
    {
      "code": "sbh01",
      "state": "Sabah",
      "name": "Sukau",
      "lat": "5.551318",
      "lng": "118.302786"
    },
    {
      "code": "sbh02",
      "state": "Sabah",
      "name": "Sandakan Barat",
      "lat": "5.814070",
      "lng": "117.732406"
    },
    {
      "code": "sbh03",
      "state": "Sabah",
      "name": "Tawau Timur",
      "lat": "4.451914",
      "lng": "118.169232"
    },
    {
      "code": "sbh04",
      "state": "Sabah",
      "name": "Tawau Barat",
      "lat": "4.487002",
      "lng": "117.307201"
    },
    {
      "code": "sbh07",
      "state": "Sabah",
      "name": "Putatan",
      "lat": "5.876932",
      "lng": "116.058926"
    },
    {
      "code": "sbh07",
      "state": "Sabah",
      "name": "Pantai Barat",
      "lat": "6.083333",
      "lng": "116.500000"
    },
    {
      "code": "swk01",
      "state": "Sarawak",
      "name": "Limbang",
      "lat": "4.755032",
      "lng": "115.008146"
    },
    {
      "code": "swk01",
      "state": "Sarawak",
      "name": "Sundar",
      "lat": "4.887442",
      "lng": "115.226701"
    },
    {
      "code": "swk01",
      "state": "Sarawak",
      "name": "Terusan",
      "lat": "4.283333",
      "lng": "115.616666"
    },
    {
      "code": "swk01",
      "state": "Sarawak",
      "name": "Lawas",
      "lat": "4.834950",
      "lng": "115.393738"
    },
    {
      "code": "swk02",
      "state": "Sarawak",
      "name": "Niah",
      "lat": "3.866516",
      "lng": "113.730859"
    },
    {
      "code": "swk02",
      "state": "Sarawak",
      "name": "Belaga",
      "lat": "3.200278",
      "lng": "113.934714"
    },
    {
      "code": "swk02",
      "state": "Sarawak",
      "name": "Sibuti",
      "lat": "4.045211",
      "lng": "113.799896"
    },
    {
      "code": "swk02",
      "state": "Sarawak",
      "name": "Miri",
      "lat": "4.399493",
      "lng": "113.991383"
    },
    {
      "code": "swk02",
      "state": "Sarawak",
      "name": "Bekenu",
      "lat": "4.058185",
      "lng": "113.844193"
    },
    {
      "code": "swk02",
      "state": "Sarawak",
      "name": "Marudi",
      "lat": "4.406340",
      "lng": "114.262830"
    },
    {
      "code": "swk03",
      "state": "Sarawak",
      "name": "Song",
      "lat": "2.006440",
      "lng": "112.549760"
    },
    {
      "code": "swk03",
      "state": "Sarawak",
      "name": "Balingian",
      "lat": "2.930870",
      "lng": "112.539540"
    },
    {
      "code": "swk03",
      "state": "Sarawak",
      "name": "Sebauh",
      "lat": "3.063030",
      "lng": "113.477610"
    },
    {
      "code": "swk03",
      "state": "Sarawak",
      "name": "Bintulu",
      "lat": "3.171322",
      "lng": "113.041907"
    },
    {
      "code": "swk03",
      "state": "Sarawak",
      "name": "Tatau",
      "lat": "2.878960",
      "lng": "112.855621"
    },
    {
      "code": "swk03",
      "state": "Sarawak",
      "name": "Kapit",
      "lat": "1.995115",
      "lng": "112.933085"
    },
    {
      "code": "swk04",
      "state": "Sarawak",
      "name": "Igan",
      "lat": "2.823991",
      "lng": "111.710899"
    },
    {
      "code": "swk04",
      "state": "Sarawak",
      "name": "Kanowit",
      "lat": "2.101223",
      "lng": "112.153298"
    },
    {
      "code": "swk04",
      "state": "Sarawak",
      "name": "Sibu",
      "lat": "2.287284",
      "lng": "111.830535"
    },
    {
      "code": "swk04",
      "state": "Sarawak",
      "name": "Dalat",
      "lat": "2.666667",
      "lng": "112.083333"
    },
    {
      "code": "swk04",
      "state": "Sarawak",
      "name": "Oya",
      "lat": "2.858436",
      "lng": "111.875922"
    },
    {
      "code": "swk05",
      "state": "Sarawak",
      "name": "Belawai",
      "lat": "2.220691",
      "lng": "111.218333"
    },
    {
      "code": "swk05",
      "state": "Sarawak",
      "name": "Matu",
      "lat": "2.695497",
      "lng": "111.471668"
    },
    {
      "code": "swk05",
      "state": "Sarawak",
      "name": "Daro",
      "lat": "2.527996",
      "lng": "111.417057"
    },
    {
      "code": "swk05",
      "state": "Sarawak",
      "name": "Sarikei",
      "lat": "2.131703",
      "lng": "111.523728"
    },
    {
      "code": "swk05",
      "state": "Sarawak",
      "name": "Julau",
      "lat": "2.024275",
      "lng": "111.916609"
    },
    {
      "code": "swk05",
      "state": "Sarawak",
      "name": "Bitangor",
      "lat": "2.169966",
      "lng": "111.636641"
    },
    {
      "code": "swk05",
      "state": "Sarawak",
      "name": "Rajang",
      "lat": "2.137227",
      "lng": "111.224885"
    },
    {
      "code": "swk06",
      "state": "Sarawak",
      "name": "Kabong",
      "lat": "1.803557",
      "lng": "111.130108"
    },
    {
      "code": "swk06",
      "state": "Sarawak",
      "name": "Lingga",
      "lat": "1.250000",
      "lng": "111.166666"
    },
    {
      "code": "swk06",
      "state": "Sarawak",
      "name": "Sri Aman",
      "lat": "1.237031",
      "lng": "111.462079"
    },
    {
      "code": "swk06",
      "state": "Sarawak",
      "name": "Engkelili",
      "lat": "1.138464",
      "lng": "111.666259"
    },
    {
      "code": "swk06",
      "state": "Sarawak",
      "name": "Betong",
      "lat": "1.411517",
      "lng": "111.528999"
    },
    {
      "code": "swk06",
      "state": "Sarawak",
      "name": "Spaoh",
      "lat": "1.462578",
      "lng": "111.479364"
    },
    {
      "code": "swk06",
      "state": "Sarawak",
      "name": "Pusa",
      "lat": "1.619999",
      "lng": "111.291599"
    },
    {
      "code": "swk06",
      "state": "Sarawak",
      "name": "Saratok",
      "lat": "1.738795",
      "lng": "111.337840"
    },
    {
      "code": "swk06",
      "state": "Sarawak",
      "name": "Roban",
      "lat": "1.866759",
      "lng": "111.334493"
    },
    {
      "code": "swk06",
      "state": "Sarawak",
      "name": "Debak",
      "lat": "1.562670",
      "lng": "111.422177"
    },
    {
      "code": "swk07",
      "state": "Sarawak",
      "name": "Samarahan",
      "lat": "1.442757",
      "lng": "110.497711"
    },
    {
      "code": "swk07",
      "state": "Sarawak",
      "name": "Simunjan",
      "lat": "1.072972",
      "lng": "110.915332"
    },
    {
      "code": "swk07",
      "state": "Sarawak",
      "name": "Serian",
      "lat": "1.167035",
      "lng": "110.566506"
    },
    {
      "code": "swk07",
      "state": "Sarawak",
      "name": "Sebuyau",
      "lat": "1.396803",
      "lng": "111.071899"
    },
    {
      "code": "swk07",
      "state": "Sarawak",
      "name": "Meludam",
      "lat": "1.476546",
      "lng": "111.213336"
    },
    {
      "code": "swk08",
      "state": "Sarawak",
      "name": "Kuching",
      "lat": "1.560000",
      "lng": "110.345000"
    },
    {
      "code": "swk08",
      "state": "Sarawak",
      "name": "Bau",
      "lat": "1.417224",
      "lng": "110.154629"
    },
    {
      "code": "swk08",
      "state": "Sarawak",
      "name": "Lundu",
      "lat": "1.671364",
      "lng": "109.851969"
    },
    {
      "code": "swk08",
      "state": "Sarawak",
      "name": "Sematan",
      "lat": "1.807459",
      "lng": "109.775842"
    },
    {
      "code": "swk09",
      "state": "Sarawak",
      "name": "Zon Khas",
      "lat": "4.962580",
      "lng": "115.554338"
    },
    {
      "code": "sgr01",
      "state": "Selangor",
      "name": "Gombak",
      "lat": "3.253502",
      "lng": "101.653326"
    },
    {
      "code": "sgr01",
      "state": "Selangor",
      "name": "Hulu Selangor",
      "lat": "3.560105",
      "lng": "101.658312"
    },
    {
      "code": "sgr01",
      "state": "Selangor",
      "name": "Rawang",
      "lat": "3.320482",
      "lng": "101.575924"
    },
    {
      "code": "sgr01",
      "state": "Selangor",
      "name": "Hulu Langat",
      "lat": "3.113117",
      "lng": "101.815673"
    },
    {
      "code": "sgr01",
      "state": "Selangor",
      "name": "Sepang",
      "lat": "2.691369",
      "lng": "101.750527"
    },
    {
      "code": "sgr01",
      "state": "Selangor",
      "name": "Petaling",
      "lat": "3.083333",
      "lng": "101.583333"
    },
    {
      "code": "sgr01",
      "state": "Selangor",
      "name": "Shah Alam",
      "lat": "3.073281",
      "lng": "101.518461"
    },
    {
      "code": "sgr02",
      "state": "Selangor",
      "name": "Sabak Bernam",
      "lat": "3.678777",
      "lng": "100.990592"
    },
    {
      "code": "sgr02",
      "state": "Selangor",
      "name": "Kuala Selangor",
      "lat": "3.340184",
      "lng": "101.249762"
    },
    {
      "code": "sgr03",
      "state": "Selangor",
      "name": "Klang",
      "lat": "3.044917",
      "lng": "101.445562"
    },
    {
      "code": "sgr03",
      "state": "Selangor",
      "name": "Kuala Langat",
      "lat": "2.803828",
      "lng": "101.495070"
    },
    {
      "code": "trg01",
      "state": "Terengganu",
      "name": "Kuala Terengganu",
      "lat": "5.329624",
      "lng": "103.137014"
    },
    {
      "code": "trg01",
      "state": "Terengganu",
      "name": "Marang",
      "lat": "5.207711",
      "lng": "103.204944"
    },
    {
      "code": "trg02",
      "state": "Terengganu",
      "name": "Besut",
      "lat": "5.829012",
      "lng": "102.552378"
    },
    {
      "code": "trg02",
      "state": "Terengganu",
      "name": "Setiu",
      "lat": "5.443798",
      "lng": "102.825218"
    },
    {
      "code": "trg03",
      "state": "Terengganu",
      "name": "Hulu Terengganu",
      "lat": "5.073042",
      "lng": "103.008937"
    },
    {
      "code": "trg04",
      "state": "Terengganu",
      "name": "Kemaman",
      "lat": "4.777790",
      "lng": "103.033887"
    },
    {
      "code": "trg04",
      "state": "Terengganu",
      "name": "Dungun",
      "lat": "4.777790",
      "lng": "103.033887"
    },
    {
      "code": "trg01",
      "state": "Terengganu",
      "name": "Kuala Nerus",
      "lat": "5.333333",
      "lng": "103.000000"
    },
    {
      "code": "wly01",
      "state": "Putrajaya",
      "name": "Putrajaya",
      "lat": "2.926361",
      "lng": "101.696445"
    },
    {
      "code": "wly01",
      "state": "Kuala Lumpur",
      "name": "Kuala Lumpur",
      "lat": "3.139003",
      "lng": "101.686855"
    },
    {
      "code": "wly02",
      "state": "Labuan",
      "name": "Labuan",
      "lat": "5.275346",
      "lng": "115.247346"
    }
  ]
}